City_ID,City,Lat,Lng,Max Temp,Humidity,Cloudiness,Wind Speed,Country,Date
0,Karratha,-20.7377,116.8463,-193.38,84,25,24.47,AU,1706982312
1,Kokopo,-4.352,152.2633,-195.10999999999996,82,97,2.44,PG,1706982413
2,Divnoye,45.9089,43.3547,-238.62999999999997,74,100,12.5,RU,1706982421
3,Yarmouth,41.7057,-70.2286,-239.99999999999997,79,100,27.0,US,1706981958
4,Blackmans Bay,-43.0167,147.3167,-213.62999999999997,86,100,5.01,AU,1706982422
5,El Quebrachal,-25.2833,-64.0667,-163.20999999999998,14,5,10.42,AR,1706982423
6,Kalmunai,7.4167,81.8167,-195.67999999999998,84,53,6.24,LK,1706981912
7,Borogontsy,62.6683,131.1683,-317.49,100,62,2.95,RU,1706982425
8,Alice Springs,-23.7,133.8833,-187.94,30,100,10.36,AU,1706981918
9,Waitangi,-43.9535,-176.5597,-215.33999999999997,70,17,22.7,NZ,1706982132
10,Holualoa,19.6228,-155.9522,-207.10999999999996,89,0,33.38,US,1706982434
11,Nemuro,43.3236,145.575,-251.07,69,26,14.09,JP,1706982232
12,Menongue,-14.6585,17.691,-203.44,81,98,3.24,AO,1706982436
13,Olonkinbyen,70.9221,-8.7187,-250.86999999999998,68,100,16.33,SJ,1706982121
14,Qaqortoq,60.7167,-46.0333,-274.31,69,4,8.1,GL,1706981878
15,Keflavik,64.0049,-22.5624,-244.83999999999997,100,100,23.02,IS,1706982146
16,Wailua Homesteads,22.0669,-159.378,-204.35999999999996,60,75,25.32,US,1706981882
17,Cartagena del Chairá,1.3349,-74.8429,-192.40999999999997,75,97,4.56,CO,1706982442
18,Jamestown,42.097,-79.2353,-233.14,76,0,3.44,US,1706981763
19,Santa Ana,33.7456,-117.8678,-212.36999999999998,66,20,6.91,US,1706982443
20,Puerto Natales,-51.7236,-72.4875,-211.89999999999998,36,20,26.46,CL,1706982329
21,Grytviken,-54.2811,-36.5092,-225.43999999999997,93,100,11.7,GS,1706982280
22,Ribeira Grande,38.5167,-28.7,-208.34999999999997,77,20,12.66,PT,1706982445
23,Salmon Arm,50.6998,-119.3024,-232.82999999999998,93,97,2.3,CA,1706981734
24,Tiksi,71.6872,128.8694,-305.90999999999997,100,100,4.83,RU,1706982447
25,Port-aux-Français,-49.35,70.2167,-227.59999999999997,77,59,6.62,TF,1706982447
26,Goondiwindi,-28.55,150.3167,-195.89999999999998,71,8,12.77,AU,1706982448
27,San Patricio,28.017,-97.5169,-203.97999999999996,50,34,14.54,US,1706982121
28,Mokhsogollokh,61.4681,128.9203,-306.91999999999996,100,36,3.38,RU,1706982449
29,Plettenberg Bay,-34.0527,23.3716,-200.91999999999996,80,87,6.42,ZA,1706982452
30,Bethel,41.3712,-73.414,-232.59999999999997,56,0,13.8,US,1706982283
31,Yellowknife,62.456,-114.3525,-272.73999999999995,96,100,16.11,CA,1706982455
32,Ushuaia,-54.8,-68.3,-221.68999999999997,66,75,11.5,AR,1706982456
33,Naryan-Mar,67.6713,53.087,-264.04999999999995,86,22,14.0,RU,1706982219
34,Tura,25.5198,90.2201,-217.96999999999997,33,0,3.6,IN,1706981946
35,Margaret River,-33.95,115.0667,-210.95999999999998,59,56,15.21,AU,1706982460
36,Bredasdorp,-34.5322,20.0403,-197.14,72,87,8.43,ZA,1706982462
37,Katsuura,35.1333,140.3,-227.07,87,100,8.7,JP,1706982463
38,Vilyuysk,63.7553,121.6247,-287.09,97,96,4.21,RU,1706982045
39,Edinburgh of the Seven Seas,-37.0676,-12.3116,-212.27999999999997,72,26,21.47,SH,1706982464
40,Watsonville,36.9102,-121.7569,-220.22999999999996,92,20,0.0,US,1706982464
41,Iqaluit,63.7506,-68.5145,-286.41999999999996,69,20,11.5,CA,1706982465
42,Ust-Nera,64.5667,143.2,-288.91999999999996,99,99,4.41,RU,1706982024
43,Papatowai,-46.5619,169.4708,-224.71999999999997,71,88,9.19,NZ,1706982214
44,Ar Ruways,24.1103,52.7306,-209.2,57,60,15.3,AE,1706982466
45,Dunay,42.8803,132.3375,-265.42999999999995,68,0,14.9,RU,1706982467
46,Tual,-5.6667,132.75,-189.32999999999998,79,72,11.32,ID,1706982474
47,Yuxi,24.355,102.5422,-226.74999999999997,72,20,7.81,CN,1706982478
48,Punta Arenas,-53.15,-70.9167,-219.43999999999997,58,75,19.57,CL,1706982479
49,Kaoma,-14.7833,24.8,-204.32,87,77,4.09,ZM,1706982482
50,Pemangkat,1.1667,108.9667,-194.94,86,99,6.67,ID,1706982483
51,Tangalle,6.024,80.7911,-197.40999999999997,88,61,7.23,LK,1706982290
52,Bengkulu,-3.8004,102.2655,-197.27999999999997,90,100,5.79,ID,1706982259
53,Utrik,11.2278,169.8474,-193.60999999999996,76,28,20.85,MH,1706982488
54,Tazovsky,67.4667,78.7,-267.12,93,100,6.67,RU,1706981912
55,College,64.8569,-147.8028,-310.7,63,100,3.44,US,1706981946
56,Geraldton,-28.7667,114.6,-202.94,73,100,26.46,AU,1706982490
57,Peace River,56.2501,-117.286,-253.43999999999997,57,20,6.91,CA,1706982027
58,Kailua-Kona,19.6406,-155.9956,-203.39,90,0,33.38,US,1706981789
59,Tongliao,43.6125,122.2653,-278.60999999999996,88,5,4.68,CN,1706982495
60,Jõhvi,59.3592,27.4211,-239.11999999999998,92,100,16.71,EE,1706982497
61,Quepos,9.4236,-84.1652,-186.42999999999998,61,14,6.29,CR,1706982500
62,Puerto Ayora,-0.7393,-90.3518,-185.39,79,55,11.23,EC,1706982503
63,Carnarvon,-24.8667,113.6333,-199.49999999999997,86,3,24.81,AU,1706982248
64,Marakkanam,12.2,79.95,-196.30999999999997,78,12,11.9,IN,1706982507
65,Whitehorse,60.7161,-135.0538,-294.38,76,75,4.61,CA,1706981916
66,Bilibino,68.0546,166.4372,-281.7,74,0,10.33,RU,1706982335
67,Mirny,62.5353,113.9611,-290.91999999999996,68,75,1.99,RU,1706982392
68,Greenville,35.6127,-77.3663,-223.01,52,0,5.75,US,1706982478
69,Fale old settlement,-9.3852,-171.2468,-189.23999999999998,78,100,19.53,TK,1706982263
70,Adamstown,-25.066,-130.1015,-196.52999999999997,76,89,5.28,PN,1706982515
71,Shimoda,34.6667,138.95,-230.03999999999996,81,100,4.21,JP,1706982517
72,Longyearbyen,78.2186,15.6401,-261.10999999999996,73,0,18.41,SJ,1706982518
73,Alapa,8.6167,4.3833,-185.32999999999998,15,11,3.78,NG,1706982518
74,El Calafate,-50.3408,-72.2768,-218.32999999999998,43,37,10.47,AR,1706982519
75,Sitka,57.0531,-135.33,-239.45999999999998,80,100,5.75,US,1706981966
76,Nova Sintra,14.8667,-24.7167,-202.84999999999997,68,67,12.57,CV,1706982520
77,St. John's,47.5649,-52.7093,-243.46999999999997,87,100,20.0,CA,1706982521
78,Kruisfontein,-34.0033,24.7314,-199.26,96,86,3.44,ZA,1706982524
79,Udachny,66.4167,112.4,-297.38,90,87,2.86,RU,1706982337
80,Badger,64.8,-147.5333,-310.78999999999996,58,100,3.44,US,1706982528
81,Ghanzi,-21.5667,21.7833,-191.98999999999998,28,71,2.71,BW,1706982529
82,Yatou,37.15,122.3833,-242.58999999999997,68,40,11.07,CN,1706982529
83,Vorgashor,67.5833,63.95,-274.71999999999997,91,100,10.31,RU,1706981967
84,Hermanus,-34.4187,19.2345,-195.33999999999997,67,76,9.86,ZA,1706982531
85,Kerikeri,-35.2268,173.9474,-221.23999999999998,89,2,3.83,NZ,1706982533
86,Guerrero Negro,27.9769,-114.0611,-210.26,55,2,15.41,MX,1706982134
87,Auki,-8.7676,160.7034,-194.02999999999997,90,100,5.66,SB,1706982258
88,Port Mathurin,-19.6833,63.4167,-192.95,72,15,15.55,MU,1706982284
89,Nizhneangarsk,55.7833,109.55,-282.15,90,4,4.0,RU,1706982539
90,Port Lincoln,-34.7333,135.8667,-206.08999999999997,66,0,4.36,AU,1706982540
91,Arhribs,36.7936,4.3116,-223.37999999999997,89,16,3.87,DZ,1706982540
92,Hadibu,12.65,54.0333,-196.46999999999997,76,65,8.14,YE,1706982540
93,Salalah,17.0151,54.0924,-190.65999999999997,34,0,14.97,OM,1706982541
94,Le Port,-20.9373,55.2919,-196.14999999999998,79,82,3.71,RE,1706982541
95,Amga,60.8953,131.9608,-298.14,100,100,1.01,RU,1706982542
96,El Nido,11.1858,119.3956,-193.21999999999997,81,15,12.53,PH,1706982542
97,Kingston,17.997,-76.7936,-186.98999999999998,57,20,5.75,JM,1706982544
98,Chonchi,-42.6128,-73.8092,-203.79999999999998,39,49,2.24,CL,1706982545
99,Jishou,28.3167,109.7167,-244.34999999999997,96,100,4.12,CN,1706982553
100,Klyuchi,52.2667,79.1667,-251.04999999999998,83,100,15.35,RU,1706982553
101,Neryungri,56.6709,124.6491,-302.12,100,89,2.21,RU,1706982555
102,Tulcingo de Valle,18.05,-98.4333,-192.57,33,1,6.11,MX,1706982555
103,Enewetak,11.3474,162.3373,-193.39999999999998,84,64,21.9,MH,1706982556
104,Lüderitz,-26.6481,15.1594,-208.20999999999998,93,33,12.57,NA,1706982332
105,Kashary,49.04,41.0056,-242.74999999999997,92,100,17.2,RU,1706982557
106,Tsiombe,-25.3,45.4833,-197.82,77,25,16.06,MG,1706982557
107,Pineda de Mar,41.6276,2.6889,-208.70999999999998,87,12,5.01,ES,1706982558
108,Rémire-Montjoly,4.9167,-52.2667,-183.51,62,20,12.66,GF,1706982559
109,West Island,-12.1568,96.8225,-190.76999999999998,83,40,10.36,CC,1706982561
110,Balnearia,-31.0088,-62.6673,-167.89,20,40,7.83,AR,1706982563
111,Biltine,14.5333,20.9167,-197.08999999999997,15,11,9.46,TD,1706982563
112,Vilino,44.8456,33.6716,-228.07999999999998,76,100,22.59,UA,1706982565
113,Sambava,-14.2667,50.1667,-194.54999999999998,90,96,10.85,MG,1706982566
114,Namsos,64.4662,11.4957,-235.83999999999997,75,99,40.29,NO,1706982567
115,Skovorodino,53.9833,123.9167,-295.46999999999997,100,19,2.28,RU,1706982321
116,Barakani,-12.1356,44.4317,-191.32999999999998,77,78,2.44,KM,1706982567
117,George Town,5.4112,100.3354,-189.01999999999998,87,20,2.3,MY,1706982568
118,Mukalla,14.5425,49.1242,-197.63,78,17,1.83,YE,1706982570
119,Chibougamau,49.9168,-74.3659,-254.12999999999997,79,100,9.22,CA,1706982570
120,Stanley,54.868,-1.6985,-227.62999999999997,78,20,16.11,GB,1706982435
121,Vila Franca do Campo,37.7167,-25.4333,-208.26,99,19,8.75,PT,1706982224
122,Sarangani,5.4033,125.4636,-191.91999999999996,80,55,22.55,PH,1706982572
123,Tôlanaro,-25.0319,46.9987,-196.07999999999998,83,20,18.41,MG,1706982573
124,Revda,56.801,59.9303,-259.58,95,100,6.06,RU,1706982575
125,Antofagasta,-23.65,-70.4,-195.07,67,6,8.97,CL,1706982423
126,Tamanghasset,22.785,5.5228,-208.83999999999997,10,0,17.27,DZ,1706982578
127,San Juan de Miraflores,-12.1629,-76.9635,-193.82999999999998,80,92,9.78,PE,1706982579
128,Talnakh,69.4865,88.3972,-266.94,96,100,9.19,RU,1706982579
129,San Clemente del Tuyú,-36.3569,-56.7235,-190.83999999999997,61,21,17.4,AR,1706982581
130,Kachug,53.9606,105.8817,-284.09999999999997,100,74,1.01,RU,1706982581
131,Iskateley,67.6803,53.1512,-264.14,86,24,14.0,RU,1706982178
132,Vilyuchinsk,52.9306,158.4028,-275.08,82,28,10.49,RU,1706982583
133,Pangoa,-12.1167,-73.0,-192.19,79,100,2.95,PE,1706982585
134,Calvinia,-31.4707,19.776,-189.98999999999998,39,69,12.53,ZA,1706982585
135,Newnham,-41.3833,147.1333,-213.2,88,72,13.8,AU,1706982589
136,Taoudenni,22.6783,-3.9836,-200.17999999999998,9,3,11.56,ML,1706982590
137,Bonanza,14.0289,-84.591,-187.01999999999998,45,3,6.2,NI,1706982591
138,Portland,45.5234,-122.6762,-224.36999999999998,87,40,3.44,US,1706982526
139,Atafu Village,-8.5421,-172.5159,-189.07999999999998,76,100,19.33,TK,1706982597
140,Lubang,13.8584,120.124,-193.67999999999998,79,48,18.01,PH,1706982598
141,Burang,30.25,81.1667,-259.28,83,34,4.72,CN,1706982599
142,Camaná,-16.6228,-72.7111,-198.76,85,87,6.31,PE,1706982600
143,Albany,42.6001,-73.9662,-236.55999999999997,64,65,3.0,US,1706982600
144,Imishli,39.8709,48.06,-233.09999999999997,49,81,5.41,AZ,1706982602
145,San-Pédro,4.7485,-6.6363,-189.10999999999996,74,100,7.31,CI,1706982049
146,East London,-33.0153,27.9116,-200.60999999999996,88,20,9.22,ZA,1706982316
147,Sinjār,36.3209,41.8754,-227.98999999999998,50,12,2.77,IQ,1706982606
148,São João da Barra,-21.6403,-41.0511,-181.65999999999997,78,79,9.91,BR,1706982207
149,Chinde,26.8418,88.0763,-226.7,65,32,3.83,NP,1706982610
150,Kuah,6.3265,99.8432,-190.76999999999998,78,20,3.44,MY,1706982611
151,Sampit,-2.5333,112.95,-199.40999999999997,98,100,2.28,ID,1706982612
152,Island Harbour,50.724,-1.2758,-218.98999999999998,91,99,5.99,GB,1706982612
153,Codrington,-38.2667,141.9667,-215.54999999999998,91,46,5.19,AU,1706982613
154,Moose Jaw,50.4001,-105.5344,-237.29999999999998,93,15,8.05,CA,1706982332
155,Saipan,15.1355,145.701,-193.64999999999998,73,0,21.85,MP,1706982319
156,Lompoc,34.6391,-120.4579,-216.21999999999997,70,100,5.75,US,1706982618
157,Nelson Bay,-32.7167,152.15,-199.15999999999997,90,20,8.01,AU,1706982619
158,Carroll,39.5501,-77.0164,-226.65999999999997,56,0,6.91,US,1706982623
159,Nasiriyah,31.0521,46.261,-215.36999999999998,37,8,7.76,IQ,1706982626
160,Cuyo,10.8525,121.0086,-193.49999999999997,86,4,17.98,PH,1706982630
161,Moab,38.5733,-109.5498,-227.53999999999996,58,98,6.85,US,1706982634
162,Māndal,25.45,74.5667,-205.66999999999996,39,98,3.4,IN,1706982635
163,Tromsø,69.6496,18.957,-246.52999999999997,100,100,2.3,NO,1706982376
164,Ilulissat,69.2167,-51.1,-278.92999999999995,49,20,10.36,GL,1706982654
165,Crane,31.3974,-102.3501,-216.98999999999998,31,0,33.51,US,1706982656
166,Hithadhoo,-0.6,73.0833,-190.14,77,100,6.78,MV,1706982656
167,Micheweni,-4.9667,39.8333,-191.07,75,71,12.82,TZ,1706982657
168,Al Arţāwīyah,26.5053,45.3444,-218.15999999999997,30,40,8.55,SA,1706982657
169,Torbat-e Ḩeydarīyeh,35.274,59.2195,-242.20999999999998,62,32,4.61,IR,1706982659
170,Tejen,37.3834,60.5054,-235.07,81,49,5.01,TM,1706982661
171,Arenápolis,-14.4503,-56.8461,-190.39,68,100,8.7,BR,1706982661
172,Esquina,-30.0144,-59.5272,-169.23999999999998,21,46,5.37,AR,1706982661
173,Tarakan,3.3,117.6333,-193.38,82,98,8.08,ID,1706982662
174,Isafjordur,66.0755,-23.124,-254.55999999999997,90,82,3.51,IS,1706982663
175,Port Elizabeth,-33.918,25.5701,-197.04999999999998,95,100,8.05,ZA,1706982663
176,Hondomachi-hondo,32.45,130.2,-222.02999999999997,90,100,8.88,JP,1706982664
177,Vorkuta,67.5,64.0,-273.87,90,100,10.16,RU,1706982121
178,Soverato Marina,38.685,16.5499,-217.79999999999998,78,19,8.72,IT,1706982665
179,Tamale,9.4008,-0.8393,-181.82,12,0,6.93,GH,1706982667
180,Rio Grande,-32.035,-52.0986,-181.64,62,3,11.92,BR,1706982668
181,Merca,1.7159,44.7717,-194.07999999999998,84,33,18.68,SO,1706982670
182,Mount Gambier,-37.8333,140.7667,-217.47999999999996,94,2,3.83,AU,1706982672
183,Hamilton,39.1834,-84.5333,-225.37999999999997,66,0,8.05,US,1706982586
184,Koné,-21.0595,164.8658,-194.64,91,98,5.66,NC,1706982672
185,Salaga,8.5508,-0.5188,-177.14,11,43,3.91,GH,1706982674
186,Smithers,54.7804,-127.1743,-258.83,100,75,2.3,CA,1706982675
187,Nova Viçosa,-17.8919,-39.3719,-189.64999999999998,66,83,8.66,BR,1706982676
188,Port Douglas,-16.4833,145.4667,-192.54999999999998,83,96,3.04,AU,1706982381
189,Dzhalagash,45.0833,64.6667,-249.22999999999996,90,100,5.95,KZ,1706982678
190,Ružomberok,49.0748,19.3075,-229.15999999999997,99,100,1.79,SK,1706982679
191,Viedma,-40.8135,-62.9967,-203.11999999999998,31,2,23.44,AR,1706982681
192,Richmond,37.5538,-77.4603,-223.93999999999997,53,20,9.22,US,1706982681
193,Cadale,2.7603,46.3222,-193.28999999999996,80,33,18.86,SO,1706982683
194,San Antonio de Palé,-1.4014,5.6325,-189.80999999999997,74,60,8.25,GQ,1706982684
195,Gaspé,48.8334,-64.4819,-253.52999999999997,58,20,9.22,CA,1706982684
196,Mejit,10.2753,170.8646,-193.38,78,67,22.86,MH,1706982685
197,Mostaganem,35.9311,0.0892,-216.67,74,0,11.39,DZ,1706982686
198,Myeik,12.4333,98.6,-196.32999999999998,75,5,5.3,MM,1706982686
199,Hirara,24.8,125.2833,-204.88,100,5,2.3,JP,1706982687
200,Kavieng,-2.5744,150.7967,-190.45999999999998,79,100,5.28,PG,1706982689
201,Ierapetra,35.01,25.7353,-217.01,60,27,7.0,GR,1706982689
202,Port Alfred,-33.5906,26.891,-199.96999999999997,91,47,1.99,ZA,1706982690
203,Ta`ū,-14.2336,-169.5144,-191.14999999999998,83,100,12.15,AS,1706982690
204,New Norfolk,-42.7826,147.0587,-212.43999999999997,93,100,1.54,AU,1706982690
205,Howrah,22.5892,88.3103,-205.14999999999998,77,0,4.61,IN,1706982691
206,Hilo,19.7297,-155.09,-207.21999999999997,89,100,16.11,US,1706982517
207,Primero de Mayo,-32.2552,-58.4228,-172.33999999999997,18,1,3.89,AR,1706982692
208,Petropavlovsk-Kamchatskiy,53.0452,158.6483,-276.56,85,0,8.95,RU,1706982692
209,Thompson,55.7435,-97.8558,-244.58999999999997,100,100,9.22,CA,1706982693
210,Lagan,45.3929,47.3707,-240.39,83,65,11.41,RU,1706982694
211,Margate,51.3813,1.3862,-219.27999999999997,83,98,1.01,GB,1706982694
212,Constanța,44.1833,28.65,-235.07,73,48,11.68,RO,1706982695
213,Vernon,50.2581,-119.2691,-233.33999999999997,96,95,1.14,CA,1706982440
214,Selfoss,63.9331,-20.9971,-247.10999999999999,66,100,22.32,IS,1706982696
215,Poronaysk,49.2167,143.1167,-280.72999999999996,96,12,4.27,RU,1706982696
216,Puerto Baquerizo Moreno,-0.9,-89.6,-189.76,84,40,17.27,EC,1706982696
217,Ulanhot,46.0833,122.0833,-278.85999999999996,83,3,5.14,CN,1706982697
218,Kuroiso,36.9667,140.05,-240.32,64,100,3.09,JP,1706982697
219,Praia da Vitória,38.7333,-27.0667,-208.39,82,40,11.12,PT,1706982697
220,Avarua,-21.2078,-159.775,-196.09999999999997,94,75,4.61,CK,1706982699
221,Karachayevsk,43.774,41.9142,-241.48999999999998,71,96,1.48,RU,1706982700
222,Atar,20.5169,-13.0499,-192.20999999999998,7,0,13.42,MR,1706982702
223,Kayangel,8.0823,134.7173,-191.45,77,7,24.23,PW,1706982703
224,Nadvoitsy,63.8667,34.3167,-251.17999999999998,95,100,13.13,RU,1706982728
225,Brezina,33.0989,1.2608,-220.73999999999998,42,0,6.91,DZ,1706982729
226,Mhamid,29.82,-5.72,-209.32999999999998,17,85,8.79,MA,1706982730
227,Hawaiian Paradise Park,19.5933,-154.9731,-207.44,93,100,16.11,US,1706982731
228,Turtas,58.9417,69.1325,-275.44,99,67,4.99,RU,1706982734
229,San Andrés,12.5847,-81.7006,-188.92999999999998,65,20,9.22,CO,1706982440
230,Tarawa,1.419,172.984,-188.85999999999996,89,75,9.22,KI,1706982738
231,Minas de Marcona,-15.2119,-75.1103,-198.51,61,66,11.74,PE,1706982171
232,Barcelos,41.5388,-8.6151,-210.29999999999998,80,25,3.13,PT,1706982739
233,Tateyama,34.9833,139.8667,-230.03999999999996,85,100,5.01,JP,1706982739
234,Singkawang,0.9,109.0,-197.27999999999997,93,99,3.98,ID,1706982740
235,Yakakent,41.6325,35.5289,-230.59999999999997,79,98,3.22,TR,1706982756
236,Invercargill,-46.4,168.35,-221.12999999999997,78,96,5.99,NZ,1706982594
237,Shelton,41.3165,-73.0932,-230.61999999999998,54,0,12.66,US,1706982757
238,Harstad,68.799,16.5293,-243.98999999999998,94,100,11.99,NO,1706982758
239,Magadan,59.5667,150.8,-277.15,77,100,8.93,RU,1706982759
240,Sake,-1.5736,29.045,-206.39,85,98,1.81,CD,1706982760
241,Saldanha,-33.0117,17.9442,-188.89999999999998,81,89,2.33,ZA,1706982760
242,Ambodifotatra,-16.9833,49.85,-192.11999999999998,79,98,14.12,MG,1706982761
243,Kamaishi,39.2667,141.8833,-241.09999999999997,69,91,4.79,JP,1706982762
244,Baker City,44.7749,-117.8344,-234.23999999999998,74,100,17.27,US,1706982763
245,Al Khārijah,25.4514,30.5464,-218.87999999999997,31,0,7.81,EG,1706982763
246,Ramón Castilla,-4.2569,-69.9594,-186.89999999999998,74,40,6.91,PE,1706982765
247,Sekong,-6.3996,106.0252,-197.99999999999997,96,100,3.09,ID,1706982766
248,Lā‘ie,21.6477,-157.9253,-202.53999999999996,64,4,8.99,US,1706982766
249,Orkney,-26.9802,26.6727,-197.07,34,66,6.78,ZA,1706982767
250,Thinadhoo,0.5333,72.9333,-189.82999999999998,76,100,7.65,MV,1706982677
251,Pauini,-7.7136,-66.9764,-193.40999999999997,85,99,0.25,BR,1706982770
252,Camalú,30.85,-116.0667,-217.49999999999997,58,51,7.31,MX,1706982772
253,Flying Fish Cove,-10.4217,105.6791,-198.26999999999998,94,13,0.0,CX,1706982780
254,La Passe,45.5549,-0.8967,-228.32,89,33,7.09,FR,1706982782
255,Alofi,-19.0595,-169.9187,-196.26,100,100,3.44,NU,1706982703
256,Eydhafushi,5.1033,73.0708,-190.78999999999996,77,66,11.36,MV,1706982784
257,Prince Rupert,54.3161,-130.3201,-237.85999999999999,86,75,10.36,CA,1706982784
258,Nantucket,41.2835,-70.0995,-241.01,71,100,27.69,US,1706982785
259,Ranau,5.9538,116.6641,-202.24999999999997,99,100,1.19,MY,1706982794
260,Lethem,3.3803,-59.7968,-170.14,20,35,6.78,GY,1706982796
261,Reggane,26.7158,0.1714,-207.35999999999996,19,0,10.83,DZ,1706982799
262,San Luis de la Loma,17.2706,-100.8939,-188.11999999999998,50,2,10.92,MX,1706982802
263,Bad Essen,52.3167,8.3333,-223.59999999999997,90,100,16.04,DE,1706982804
264,Bernburg,51.8,11.7333,-222.15999999999997,81,100,15.12,DE,1706982813
265,Zaozërsk,69.4005,32.4476,-254.01999999999998,84,100,14.58,RU,1706982814
266,Caçu,-18.5567,-51.1308,-192.74999999999997,49,100,9.64,BR,1706982815
267,Mermoz Boabab,14.7065,-17.4758,-175.78999999999996,39,0,6.91,SN,1706982817
268,Allāpalli,19.4167,80.0667,-203.09999999999997,39,0,3.11,IN,1706982819
269,Yashkul',46.1711,45.3435,-238.82999999999998,79,98,13.11,RU,1706982824
270,Wick,58.4333,-3.0833,-230.29999999999998,75,99,18.41,GB,1706982826
271,Bubaque,11.2833,-15.8333,-194.03999999999996,70,0,14.32,GW,1706982829
272,Usinsk,65.9939,57.5281,-276.07,93,20,5.99,RU,1706982835
273,Aasiaat,68.7098,-52.8699,-295.46,98,63,5.28,GL,1706982840
274,Saint-Philippe,-21.3585,55.7679,-196.55999999999997,76,78,10.42,RE,1706982841
275,Daru,-9.0763,143.2092,-194.89,90,93,6.91,PG,1706982608
276,Lata,40.1629,-8.3327,-217.33999999999997,73,11,0.69,PT,1706982844
277,Gadzhiyevo,69.2551,33.3362,-251.36999999999998,79,96,29.39,RU,1706982849
278,Vadsø,70.0744,29.7487,-246.39,86,100,18.41,NO,1706982646
279,Tralee,52.2704,-9.7026,-221.09999999999997,93,100,6.91,IE,1706982793
280,Alibag,18.6411,72.8792,-190.67999999999998,67,24,5.3,IN,1706982852
281,Murghab,38.1702,73.9667,-267.32,82,81,5.41,TJ,1706982854
282,Mont-Dore,-22.2833,166.5833,-191.14999999999998,99,100,12.3,NC,1706982857
283,Anadyr,64.75,177.4833,-276.65,70,0,8.01,RU,1706982659
284,Gizo Government Station,-8.103,156.8419,-190.27999999999997,79,100,6.69,SB,1706982859
285,Happy Valley-Goose Bay,53.3168,-60.3315,-269.64,55,20,3.44,CA,1706982860
286,Kenora,49.8167,-94.4337,-243.77999999999997,80,0,5.75,CA,1706982860
287,Fortuna,40.5982,-124.1573,-222.47999999999996,89,0,10.36,US,1706982865
288,Alaşehir,38.3508,28.5172,-233.09999999999997,80,4,2.06,TR,1706982866
289,Skagen,57.7209,10.5839,-232.01999999999998,80,29,34.43,DK,1706982874
290,Newman,37.3138,-121.0208,-221.84999999999997,80,93,1.99,US,1706982643
291,Palu,-0.8917,119.8707,-196.64,97,96,1.28,ID,1706982882
292,Morón,-34.6534,-58.6198,-173.17999999999998,58,7,1.01,AR,1706982883
293,Almeirim,-1.5233,-52.5817,-181.09999999999997,48,95,5.61,BR,1706982884
294,Otan Ayegbaju,7.9475,4.7871,-188.83999999999997,19,25,4.34,NG,1706982884
295,Bochum,51.4833,7.2167,-222.64999999999998,99,100,5.99,DE,1706982676
296,Madang,-5.2246,145.7966,-196.45999999999998,93,100,5.55,PG,1706982887
297,Egilsstadir,65.2653,-14.3948,-244.83999999999997,37,0,9.22,IS,1706982887
298,Candelaria,13.9311,121.4233,-200.69,97,27,5.21,PH,1706982889
299,Cologne,50.9333,6.95,-221.32999999999998,89,75,18.41,DE,1706982665
300,Tūkrah,32.5341,20.5791,-217.39,77,19,5.32,LY,1706982896
301,Lihue,21.9789,-159.3672,-203.76,58,75,25.32,US,1706982899
302,Kaiyuan,23.6977,103.3037,-218.82999999999998,69,29,6.49,CN,1706982906
303,Dryden,49.7833,-92.7503,-246.26,86,0,9.22,CA,1706982910
304,Khāsh,28.2211,61.2158,-223.90999999999997,38,21,4.52,IR,1706982912
305,Gillette,44.2911,-105.5022,-230.47999999999996,90,100,10.36,US,1706982778
306,Labytnangi,66.6572,66.4183,-286.09999999999997,100,100,3.11,RU,1706982913
307,Fauske,67.2588,15.3918,-241.10999999999999,84,80,8.32,NO,1706982850
308,Princeville,45.7668,-61.2985,-242.29999999999998,96,100,12.66,CA,1706982915
309,Ubari,26.5921,12.7805,-219.07999999999998,28,0,6.62,LY,1706982917
310,Hasaki,35.7333,140.8333,-231.85999999999999,71,100,6.15,JP,1706982836
311,Ambovombe,-25.1667,46.0833,-198.76,76,23,16.87,MG,1706982922
312,Natchitoches,31.7668,-93.1335,-217.76999999999998,94,100,9.22,US,1706982923
313,Urangan,-25.3,152.9,-197.95,91,3,5.99,AU,1706982923
314,Plonéour-Lanvern,47.9,-4.2833,-222.82999999999998,93,100,2.3,FR,1706982924
315,Taroa,8.7058,171.2275,-192.79999999999998,81,44,22.77,MH,1706982925
316,Levice,48.2156,18.6071,-222.64999999999998,81,96,13.2,SK,1706982925
317,Uturoa,-16.7333,-151.4333,-191.15999999999997,74,93,11.27,PF,1706982926
318,Adré,13.4667,22.2,-200.98999999999998,17,41,10.85,TD,1706982930
319,Dudinka,69.4058,86.1778,-266.47999999999996,94,100,11.99,RU,1706982930
320,Suva,-18.1416,178.4415,-196.66999999999996,94,98,4.61,FJ,1706982645
321,Cape Canaveral,28.4058,-80.6048,-197.17999999999998,60,0,6.91,US,1706982938
322,Mammoth Lakes,37.6485,-118.9721,-246.79999999999998,52,40,4.0,US,1706982940
323,Springbok,-29.6643,17.8865,-195.38,51,59,7.67,ZA,1706982941
324,Kandahar,31.0,65.75,-226.32,31,7,8.9,AF,1706982943
325,Tomohon,1.3346,124.8392,-204.20999999999998,90,31,1.39,ID,1706982943
326,Saint Paul Harbor,57.79,-152.4072,-248.83999999999997,80,100,0.0,US,1706982817
327,Brak,27.5496,14.2714,-218.80999999999997,30,9,3.02,LY,1706982948
328,San Pedro Pochutla,15.7333,-96.4667,-185.64,47,5,15.43,MX,1706982956
329,Qiqihar,47.3408,123.9672,-280.57,89,5,4.52,CN,1706982957
330,Oakville,43.4501,-79.6829,-232.01999999999998,68,5,4.61,CA,1706982729
331,General Pico,-35.6566,-63.7568,-176.77999999999997,13,22,15.52,AR,1706982961
332,Paramonga,-10.6667,-77.8333,-193.98999999999998,74,78,10.38,PE,1706982961
333,Ankpa,7.3706,7.6253,-190.51999999999998,17,64,4.14,NG,1706982964
334,Rongelap,11.1635,166.8941,-193.51999999999998,81,32,20.83,MH,1706982671
335,Kucha,41.7278,82.9364,-246.42,72,42,3.56,CN,1706982966
336,Kavaratti,10.5669,72.642,-193.35999999999996,69,38,4.99,IN,1706982967
337,Broken Hill,-31.95,141.4333,-191.30999999999997,17,99,9.01,AU,1706982975
338,Tingo María,-9.2895,-76.0088,-190.44,74,75,3.44,PE,1706982977
339,Kampot,10.6167,104.1833,-196.09999999999997,86,16,5.14,KH,1706982985
340,Ndélé,8.4109,20.6473,-192.69,16,14,5.48,CF,1706982986
341,Tongouson,5.0214,120.1328,-193.7,86,98,4.68,PH,1706982986
342,Tucumã,-0.1833,-50.05,-186.63,63,63,7.38,BR,1706982704
343,Arraial do Cabo,-22.9661,-42.0278,-185.39,74,75,19.57,BR,1706982988
344,Xilin Hot,43.9667,116.0333,-285.35999999999996,94,5,5.37,CN,1706982990
345,Porto-Novo,6.4965,2.6036,-185.52999999999997,52,87,7.4,BJ,1706982990
346,Houlton,46.1262,-67.8403,-251.42999999999998,67,0,16.11,US,1706982993
347,Rabo de Peixe,37.8,-25.5833,-209.15999999999997,99,20,11.5,PT,1706982993
348,Tweed Heads,-28.1817,153.547,-192.51,88,100,10.36,AU,1706982994
349,Anloga,5.7947,0.8973,-190.40999999999997,75,88,10.38,GH,1706982995
350,Mossamedes,-15.1961,12.1522,-194.05999999999997,81,96,6.38,AO,1706982995
351,Chechelnyk,48.8353,26.6484,-229.84999999999997,88,100,21.27,UA,1706982995
352,Papao,-17.75,-149.55,-189.26999999999998,77,82,11.74,PF,1706982996
353,Glace Bay,46.1969,-59.957,-243.05999999999997,97,100,15.99,CA,1706982998
354,Tabou,4.423,-7.3528,-189.2,73,100,8.95,CI,1706982884
355,Rengāli,21.6333,84.05,-208.64,49,8,1.52,IN,1706982998
356,Yuzhno-Kurilsk,44.0306,145.8556,-248.77999999999997,71,92,14.2,RU,1706982999
357,Ganshui,28.7422,106.7111,-226.97999999999996,86,100,1.3,CN,1706983001
358,Kormilovka,55.0026,74.1028,-264.47999999999996,98,94,6.76,RU,1706983002
359,Umm Kaddadah,13.6017,26.6876,-208.7,20,46,13.33,SD,1706982709
360,Vovchans'k,50.3003,36.9467,-239.93999999999997,97,100,15.7,UA,1706983004
361,Bath,51.3779,-2.3591,-219.18999999999997,95,100,16.22,GB,1706983005
362,Piti Village,13.4626,144.6933,-195.26999999999998,89,40,20.71,GU,1706983012
363,Tofol,5.3248,163.0078,-190.72999999999996,80,100,19.55,FM,1706983013
364,Rawson,-43.3002,-65.1023,-207.2,28,11,24.38,AR,1706983014
365,Ancud,-41.8697,-73.8203,-212.97999999999996,59,76,8.97,CL,1706983018
366,Walvis Bay,-22.9575,14.5053,-198.79999999999998,73,94,0.0,NA,1706983021
367,As Sulayyil,20.4607,45.5779,-210.29999999999998,24,0,14.97,SA,1706983029
368,Touros,-5.1989,-35.4608,-188.72999999999996,68,57,15.95,BR,1706983031
369,Zheleznogorsk-Ilimskiy,56.5768,104.1217,-289.78999999999996,100,92,1.99,RU,1706983031
370,Ubatuba,-23.4339,-45.0711,-193.88,79,100,1.9,BR,1706983033
371,Dalbandin,28.8947,64.4101,-214.86999999999998,24,41,14.83,PK,1706983034
372,Balabac,7.9868,117.0645,-193.01999999999998,78,73,11.9,PH,1706983035
373,Juan Griego,11.0817,-63.9655,-183.41999999999996,51,37,11.5,VE,1706983035
374,Changzhi,35.2089,111.7386,-248.70999999999998,96,99,3.33,CN,1706983039
375,Patterson,37.4716,-121.1297,-222.14,80,83,4.83,US,1706983040
376,Songea,-10.6833,35.65,-206.01,96,98,2.35,TZ,1706983041
377,Andergrove,-21.0833,149.1833,-194.83999999999997,75,12,6.35,AU,1706983041
378,Machachi,-0.5,-78.5667,-204.39,84,99,3.98,EC,1706983042
379,Adam,22.3756,57.5233,-204.82999999999998,30,47,11.18,OM,1706983045
380,Al Jawf,29.5,38.75,-221.79999999999998,47,5,5.99,SA,1706983046
381,Imām Şāḩib,37.189,68.9364,-233.29999999999998,89,100,8.5,AF,1706983047
382,Kilju,40.9642,129.3278,-251.83999999999997,89,97,3.69,KP,1706983047
383,Maloye Ganyushkino,46.6,49.2667,-241.55999999999997,85,41,13.76,KZ,1706983048
384,Huatabampo,26.8333,-109.6333,-204.42999999999998,36,0,6.4,MX,1706983049
385,Unionville,35.0874,-80.509,-217.97999999999996,50,0,4.61,US,1706983049
386,Roxas,11.5853,122.7511,-196.01,88,29,12.21,PH,1706983050
387,Dawei,14.0833,98.2,-202.55999999999997,82,3,2.55,MM,1706983051
388,Jayapura,-2.5333,140.7,-198.55999999999997,91,94,5.12,ID,1706983053
389,Ghadames,30.1337,9.5007,-215.99999999999997,52,59,7.65,LY,1706983054
390,Quellón,-43.1167,-73.6167,-213.45,53,50,7.65,CL,1706982821
391,Alaghsas,17.0187,8.0168,-201.65999999999997,13,0,20.71,NE,1706983055
392,Koupéla,12.1794,-0.3517,-187.46999999999997,12,1,10.25,BF,1706983056
393,Souillac,-20.5167,57.5167,-193.96999999999997,69,75,9.22,MU,1706983056
394,Nema,57.5067,50.5011,-261.21999999999997,97,100,5.1,RU,1706983056
395,Saint-François,46.4154,3.9054,-232.46999999999997,100,100,4.61,FR,1706983057
396,Laikit,1.4792,124.9735,-198.89999999999998,94,40,1.14,ID,1706983058
397,Kānker,20.2719,81.4931,-208.01,37,5,2.39,IN,1706983059
398,Toktogul,41.8708,72.9402,-251.72999999999996,68,100,3.6,KG,1706983060
399,San Salvador de Jujuy,-24.1946,-65.2971,-180.41999999999996,32,1,6.2,AR,1706983061
400,Sanctuary Point,-35.1114,150.629,-201.40999999999997,87,81,7.11,AU,1706983062
401,Kitee,62.1,30.15,-241.93999999999997,85,100,9.1,FI,1706983062
402,San José del Guaviare,2.5729,-72.6459,-179.95,48,93,3.56,CO,1706983063
403,Luchegorsk,46.4764,134.2569,-291.51,100,83,3.94,RU,1706983064
404,North Bend,43.4065,-124.2243,-228.07999999999998,87,0,4.61,US,1706983064
405,Cockburn Town,21.4612,-71.1419,-199.64,62,0,6.51,TC,1706983065
406,Padang,-0.9492,100.3543,-197.89999999999998,90,100,2.42,ID,1706983065
407,Necochea,-38.5473,-58.7368,-198.80999999999997,56,3,21.18,AR,1706983066
408,Azángaro,-14.9167,-70.2167,-210.32,37,68,6.46,PE,1706983067
409,Finisterra,42.9049,-9.2629,-216.37999999999997,79,22,4.68,ES,1706983067
410,Cidreira,-30.1811,-50.2056,-193.28999999999996,70,0,14.5,BR,1706983068
411,Coquimbo,-29.9533,-71.3436,-201.82,73,40,14.97,CL,1706982844
412,Rome,43.2128,-75.4557,-235.42999999999998,65,0,5.75,US,1706983070
413,Fort William,56.8165,-5.1121,-228.83999999999997,89,100,12.66,GB,1706983071
414,Kenai,60.5544,-151.2583,-292.0,83,0,3.44,US,1706983072
415,Lages,-27.8161,-50.3261,-187.16999999999996,33,1,4.56,BR,1706982801
416,Naze,28.3667,129.4833,-207.82999999999998,87,34,10.18,JP,1706983074
417,Mafikeng,-25.8652,25.6442,-194.36999999999998,44,20,14.97,ZA,1706983076
418,Dubbo,-32.25,148.6167,-197.82,64,71,9.22,AU,1706983077
419,Chernyshevsk,52.5243,117.0174,-300.41999999999996,100,46,1.14,RU,1706983077
420,Arnö,60.1167,18.6333,-234.35999999999999,68,70,15.82,SE,1706983078
421,Rouissat,31.9243,5.3502,-212.27999999999997,41,20,9.22,DZ,1706983079
422,Cologne,50.9333,6.95,-221.32999999999998,89,75,18.41,DE,1706982963
423,Dulce Grande,23.0,-102.1667,-214.92,23,0,21.52,MX,1706983079
424,Puerto Lempira,15.2667,-83.7667,-187.45999999999998,50,1,6.17,HN,1706983081
425,Itamaracá,-7.7478,-34.8256,-185.29999999999998,60,37,11.23,BR,1706983082
426,Sitia,35.2,26.0986,-217.17,62,18,17.6,GR,1706983083
427,El Granada,37.5027,-122.4694,-220.78999999999996,90,75,3.44,US,1706983084
428,Labrador City,52.9463,-66.9114,-268.23999999999995,51,40,0.0,CA,1706983085
429,Ad Dabbah,18.05,30.95,-209.03999999999996,19,48,11.56,SD,1706983087
430,Suoyarvi,62.0833,32.35,-245.92,97,100,5.97,RU,1706983089
431,Nabire,-3.3667,135.4833,-196.82,93,99,2.86,ID,1706983092
432,Afaahiti,-17.75,-149.2833,-190.88,74,81,8.88,PF,1706983093
433,Baghlan,35.75,69.0,-248.92999999999998,98,100,5.39,AF,1706983095
434,Xigazê,29.25,88.8833,-245.42,16,41,1.68,CN,1706983096
435,Tazacorte,28.629,-17.9293,-201.99999999999997,68,20,2.3,ES,1706983096
436,Mandalgovi,45.7625,106.2708,-278.37,88,62,4.83,MN,1706983096
437,Ocós,14.5094,-92.1933,-185.16999999999996,62,5,9.8,GT,1706983097
438,La Ronge,55.1001,-105.2842,-239.09999999999997,86,100,8.05,CA,1706983099
439,Beloretsk,53.9631,58.3981,-249.62999999999997,94,100,3.0,RU,1706983100
440,Fuglafjørður,62.244,-6.814,-237.07999999999998,74,100,28.45,FO,1706983101
441,Mili,6.0815,171.735,-191.2,79,71,22.64,MH,1706983103
442,Mauá,-23.6678,-46.4614,-188.78999999999996,67,100,2.04,BR,1706983103
443,Jiuquan,39.7432,98.5174,-259.54999999999995,93,10,3.51,CN,1706983104
444,Crucecita,-28.95,-58.9833,-166.22999999999996,16,10,2.95,AR,1706983105
445,Ottumwa,41.02,-92.4113,-229.2,88,100,11.5,US,1706983105
446,Mar del Plata,-38.0023,-57.5575,-194.32999999999998,53,0,21.0,AR,1706983105
447,Purpe,64.4803,76.6897,-272.38,94,93,6.53,RU,1706983105
448,Queenstown,-31.8976,26.8753,-199.57,61,92,0.76,ZA,1706983106
449,Ankang,32.68,109.0172,-239.70999999999998,78,98,4.23,CN,1706983107
450,Cabo San Lucas,22.8909,-109.9124,-196.54999999999998,42,3,3.0,MX,1706983108
451,Leava,-14.3,-178.1667,-189.53999999999996,76,99,5.59,WF,1706983110
452,Santo Antônio,-6.3106,-35.4789,-185.01,50,96,13.8,BR,1706983111
453,Palmyra,34.5608,38.2805,-223.93999999999997,72,46,3.87,SY,1706983113
454,Magarao,13.65,123.1667,-199.61999999999998,94,17,3.27,PH,1706983117
455,Mount Pearl,47.5166,-52.7813,-244.29999999999998,87,100,17.27,CA,1706983118
456,Las Heras,-46.5419,-68.9359,-207.80999999999997,14,6,6.93,AR,1706983118
457,Jabor,5.921,169.6434,-192.19,84,100,19.93,MH,1706983119
458,Singkil,-7.9855,111.4161,-196.79999999999998,93,100,3.67,ID,1706983119
459,Opuwo,-18.0607,13.84,-200.96999999999997,77,100,5.7,NA,1706983120
460,San Matías,-16.3667,-58.4,-178.73999999999998,38,29,6.87,BO,1706983124
461,São José da Coroa Grande,-8.8978,-35.1478,-187.70999999999998,61,65,10.16,BR,1706983125
462,Dvinskoy Bereznik,62.8551,42.7072,-271.26,100,87,4.36,RU,1706983129
463,Balaklava,44.5,33.6,-227.77999999999997,51,100,23.6,UA,1706983133
464,Morondava,-20.2833,44.2833,-190.42999999999998,76,23,4.72,MG,1706983137
465,Kayes,14.0,-11.0,-178.34999999999997,8,4,8.52,ML,1706983137
466,Kallar Kahar,32.7833,72.7,-222.58999999999997,76,97,3.89,PK,1706983139
467,Keuruu,62.2667,24.7,-242.76999999999998,90,64,6.6,FI,1706983140
468,Slave Lake,55.2834,-114.769,-246.57,86,100,17.27,CA,1706983142
469,Rehoboth,-23.3167,17.0833,-193.88,46,96,11.72,NA,1706983142
470,Jumla,29.2747,82.1838,-237.65999999999997,50,33,4.21,NP,1706983143
471,Bārah,13.7,30.3667,-206.32,17,73,11.59,SD,1706983147
472,Pisco,-13.7,-76.2167,-195.11999999999998,73,75,9.22,PE,1706983149
473,Mushie,-3.0167,16.9,-195.29999999999998,77,75,4.41,CD,1706983151
474,Maryborough,-25.5333,152.7,-198.03999999999996,93,1,2.84,AU,1706983152
475,Sabzawār,36.2126,57.6819,-239.17,80,51,2.59,IR,1706983156
476,Taulaga,-11.0553,-171.0883,-189.84999999999997,79,100,20.27,AS,1706983158
477,Türkmenbaşy,40.0222,52.9552,-231.37999999999997,87,40,9.22,TM,1706983160
478,Sicuani,-14.2694,-71.2261,-211.89999999999998,48,74,2.48,PE,1706983160
479,Pathein,16.7833,94.7333,-202.73999999999998,76,2,8.97,MM,1706983162
480,Port-Gentil,-0.7193,8.7815,-190.67999999999998,76,87,9.1,GA,1706983163
481,Nizhnesortymskiy,62.4397,71.7603,-273.87,100,88,8.39,RU,1706983165
482,Altamira,-3.2033,-52.2064,-185.26,66,75,5.75,BR,1706983166
483,Nizhneudinsk,54.9076,99.0276,-266.62,97,100,1.23,RU,1706983168
484,Sandakan,5.8402,118.1179,-198.26999999999998,100,20,3.44,MY,1706983168
485,Tomatlán,19.9333,-105.25,-187.95999999999998,35,0,7.0,MX,1706982875
486,Northam,51.0333,-4.2167,-220.76,99,99,16.15,GB,1706983174
487,Sandnessjøen,66.0217,12.6316,-240.62999999999997,94,100,25.57,NO,1706983175
488,Abatskiy,56.2875,70.4555,-273.19,98,84,7.49,RU,1706983177
489,Bor,56.3567,44.0669,-255.61999999999998,97,100,3.89,RU,1706983177
490,Kyzyl-Mazhalyk,51.1333,90.6,-289.34999999999997,92,58,0.85,RU,1706983178
491,Susuman,62.7833,148.1667,-290.13,99,100,4.45,RU,1706983178
492,Antsiranana,-12.2787,49.2917,-195.02999999999997,89,92,1.25,MG,1706983179
493,Arrondissement du Havre,49.5833,0.3333,-222.95,100,100,11.5,FR,1706983180
494,Aur,8.1499,171.1687,-192.29999999999998,81,15,21.09,MH,1706983181
495,Novy Urengoy,66.0833,76.6333,-271.16999999999996,97,100,5.55,RU,1706983183
496,Dampit,-8.2116,112.7493,-201.19,97,100,1.66,ID,1706983185
497,Ende,-8.8432,121.6623,-193.91999999999996,87,100,1.97,ID,1706983185
498,Bam,29.106,58.357,-225.82999999999998,40,0,5.61,IR,1706983198
499,Lebu,-37.6167,-73.65,-209.68999999999997,67,3,23.06,CL,1706983200
500,Diu,20.7141,70.9822,-198.41999999999996,55,2,10.27,IN,1706983209
501,Shihezi,44.3,86.0333,-264.33,96,98,4.7,CN,1706983211
502,Zouérat,22.7187,-12.4521,-197.64,10,37,10.87,MR,1706983212
503,Palmas,-10.2128,-48.3603,-194.47999999999996,78,75,2.3,BR,1706983214
504,Znamenskoye,57.1281,73.8282,-281.76,100,86,4.76,RU,1706983215
505,Kuching,1.55,110.3333,-190.14,95,20,1.01,MY,1706983009
506,Krasnyy Chikoy,50.3643,108.7512,-282.09999999999997,100,53,1.92,RU,1706983218
507,Bandar-e Lengeh,26.5579,54.8807,-205.03999999999996,45,0,13.8,IR,1706983219
508,Mīnāb,27.1467,57.0801,-207.53999999999996,48,0,6.31,IR,1706983222
509,Morehead City,34.7229,-76.726,-221.11999999999998,61,7,8.01,US,1706983226
510,Kolding,55.4904,9.4722,-229.98999999999998,87,27,14.97,DK,1706983227
511,Puerto Madero,14.7208,-92.4215,-185.14999999999998,51,20,0.0,MX,1706983229
512,Westport,41.1415,-73.3579,-231.7,51,14,8.99,US,1706983231
513,Hakui,36.8833,136.7833,-232.93999999999997,79,100,5.3,JP,1706983232
514,Ciudad Melchor Múzquiz,27.8833,-101.5167,-204.76999999999998,22,0,20.04,MX,1706983236
515,Howard Springs,-12.497,131.047,-190.83999999999997,94,98,8.48,AU,1706983245
516,Urengoy,65.9667,78.3667,-271.96999999999997,97,100,3.83,RU,1706983247
517,Sājir,25.1825,44.5996,-217.04999999999998,28,2,10.71,SA,1706983249
518,Filingué,14.3521,3.3168,-194.30999999999997,13,91,10.0,NE,1706983250
519,Mananara,-16.1667,49.7667,-196.2,92,100,6.44,MG,1706983251
520,Lincoln City,44.9582,-124.0179,-224.02999999999997,88,81,4.0,US,1706983252
521,Cam Ranh,11.9214,109.1591,-199.78999999999996,88,0,3.44,VN,1706983255
522,Lucapa,-8.4192,20.7447,-204.46999999999997,92,100,3.2,AO,1706983256
523,Xiaoweizhai,26.1903,107.5125,-235.96999999999997,98,100,4.83,CN,1706983259
524,Toliara,-23.35,43.6667,-195.08999999999997,82,67,1.14,MG,1706983262
525,Bamboo Flat,11.7,92.7167,-196.05999999999997,88,10,0.0,IN,1706983263
526,Minot Air Force Base,48.4209,-101.3391,-233.76999999999998,93,100,12.66,US,1706983265
527,Monywa,22.1167,95.1333,-204.22999999999996,53,0,6.93,MM,1706983267
528,Wainwright,52.839,-110.8572,-236.89999999999998,78,100,13.8,CA,1706983268
529,Percut,3.6253,98.864,-194.13,89,44,4.83,ID,1706983270
530,Laguna,38.421,-121.4238,-221.05999999999997,83,20,6.91,US,1706983271
531,Hotan,37.0997,79.9269,-247.80999999999997,82,100,4.34,CN,1706983272
532,Yeppoon,-23.1333,150.7333,-198.16999999999996,71,5,11.43,AU,1706983273
533,Zakynthos,37.7914,20.8953,-221.51,61,1,7.7,GR,1706983275
534,Miðvágur,62.0511,-7.1939,-236.71999999999997,80,75,8.05,FO,1706983277
535,Macapá,0.0389,-51.0664,-185.36999999999998,70,40,6.91,BR,1706982980
536,Tuburan,6.6439,122.2736,-192.23999999999998,76,31,0.72,PH,1706983280
537,Hammerfest,70.6634,23.6821,-247.89999999999998,80,100,8.05,NO,1706983282
538,Cam Pha Mines,21.0167,107.3,-207.34999999999997,92,33,2.62,VN,1706983284
539,Greymouth,-42.4667,171.2,-219.11999999999998,82,96,5.06,NZ,1706983277
540,Les Anglais,18.3054,-74.2197,-193.53999999999996,67,12,5.12,HT,1706983286
541,Kapaa,22.0752,-159.319,-204.04999999999998,54,7,7.0,US,1706983288
542,Belmonte,-15.8631,-38.8828,-189.32999999999998,64,82,7.63,BR,1706983290
543,Pôsto Fiscal Rolim de Moura,-13.0833,-62.2667,-184.21999999999997,58,38,2.66,BR,1706983292
544,Lázaro Cárdenas,17.9583,-102.2,-192.36999999999998,60,3,7.43,MX,1706983017
545,Acaraú,-2.8856,-40.12,-187.61999999999998,65,85,17.81,BR,1706983262
546,Playas,-2.6333,-80.3833,-192.49999999999997,78,100,6.46,EC,1706983299
547,Ust-Tsilma,65.441,52.1498,-258.53999999999996,91,91,10.0,RU,1706983302
548,Kununurra,-15.7667,128.7333,-190.76999999999998,94,22,10.36,AU,1706983304
549,Soto la Marina,23.7667,-98.2167,-182.08999999999997,18,0,9.26,MX,1706983308
550,Polyarny,69.1989,33.4478,-250.55999999999997,78,96,29.57,RU,1706983293
551,Sanguéya,10.7,-14.3667,-184.2,38,0,11.14,GN,1706983311
552,Zaṟah Sharan,33.1467,68.7917,-249.89999999999998,93,69,4.18,AF,1706983313
553,Santiago de Cuba,20.0247,-75.8219,-191.88,57,53,6.6,CU,1706983313
554,Dauphin,51.1494,-100.0502,-239.20999999999998,100,100,3.44,CA,1706983314
555,Balkanabat,39.5108,54.3671,-229.60999999999999,80,7,3.04,TM,1706983315
556,Nogliki,51.8333,143.1667,-282.79999999999995,89,55,8.01,RU,1706983315
557,Vail,32.0479,-110.712,-220.51999999999998,60,9,1.99,US,1706983317
558,Zhigalovo,54.8097,105.1578,-287.64,100,94,1.77,RU,1706983318
559,Loikaw,19.6742,97.2094,-214.55999999999997,57,0,4.09,MM,1706983318
560,Onega,63.9061,38.1404,-262.21,88,73,12.12,RU,1706983319
561,Irymple,-34.25,142.1667,-193.07,21,100,9.93,AU,1706983319
562,Verāval,20.9,70.3667,-198.59999999999997,65,0,9.4,IN,1706983320
563,Fort Bragg,35.139,-79.006,-219.49999999999997,46,0,5.01,US,1706983324
564,Salinera Colán,-5.0333,-81.0667,-188.71999999999997,62,91,12.08,PE,1706983254
565,Miguel Auza,24.2933,-103.4503,-213.98999999999998,24,0,22.93,MX,1706983327
566,Nacala,-14.5428,40.6728,-194.32999999999998,88,56,3.27,MZ,1706983328
